[
 {
   "Name": "Annapurna",
   "Latitude": 28.56666667,
   "Longitude": 83.83333333
 },
 {
   "Name": "Arun",
   "Latitude": 26.91666667,
   "Longitude": 87.16666667
 },
 {
   "Name": "Baitadi",
   "Latitude": 29.58333333,
   "Longitude": 80.41666667
 },
 {
   "Name": "Bhaktapur",
   "Latitude": 27.63333333,
   "Longitude": 85.4
 },
 {
   "Name": "Birantnagar",
   "Latitude": 26.45,
   "Longitude": 87.28333333
 },
 {
   "Name": "Chisapani Garhi",
   "Latitude": 27.5,
   "Longitude": 84.03333333
 },
 {
   "Name": "Dandeldhura",
   "Latitude": 29.33333333,
   "Longitude": 80.58333333
 },
 {
   "Name": "Dhangarhi",
   "Latitude": 28.91666667,
   "Longitude": 80.66666667
 },
 {
   "Name": "Dhankuta",
   "Latitude": 26.91666667,
   "Longitude": 87.66666667
 },
 {
   "Name": "Dhaulagiri",
   "Latitude": 28.65,
   "Longitude": 83.46666667
 },
 {
   "Name": "Everest, Mt.",
   "Latitude": 28.08333333,
   "Longitude": 86.96666667
 },
 {
   "Name": "Gurkha",
   "Latitude": 28.08333333,
   "Longitude": 84.66666667
 },
 {
   "Name": "Ilam",
   "Latitude": 26.96666667,
   "Longitude": 87.96666667
 },
 {
   "Name": "Jaleswar",
   "Latitude": 26.63333333,
   "Longitude": 85.8
 },
 {
   "Name": "Jumla",
   "Latitude": 29.25,
   "Longitude": 82.21666667
 },
 {
   "Name": "Kanchenjunga",
   "Latitude": 27.83333333,
   "Longitude": 88.16666667
 },
 {
   "Name": "Karnali",
   "Latitude": 28.75,
   "Longitude": 81.26666667
 },
 {
   "Name": "Kathmandu/Katmandu",
   "Latitude": 27.75,
   "Longitude": 85.33333333
 },
 {
   "Name": "Katmandu",
   "Latitude": 27.75,
   "Longitude": 85.33333333
 },
 {
   "Name": "Lalitapur",
   "Latitude": 27.66666667,
   "Longitude": 85.33333333
 },
 {
   "Name": "Mahabharat Lekh",
   "Latitude": 28.5,
   "Longitude": 82
 },
 {
   "Name": "Manaslu",
   "Latitude": 28.55,
   "Longitude": 84.55
 },
 {
   "Name": "Mugu",
   "Latitude": 29.75,
   "Longitude": 82.5
 },
 {
   "Name": "Mustang",
   "Latitude": 29.16666667,
   "Longitude": 83.91666667
 },
 {
   "Name": "Namche Bazar",
   "Latitude": 27.85,
   "Longitude": 86.78333333
 },
 {
   "Name": "Nawakot",
   "Latitude": 27.91666667,
   "Longitude": 85.16666667
 },
 {
   "Name": "Nepalganj",
   "Latitude": 28.08333333,
   "Longitude": 81.66666667
 },
 {
   "Name": "Nuwakot",
   "Latitude": 28.16666667,
   "Longitude": 83.91666667
 },
 {
   "Name": "Patan/Lalitapur",
   "Latitude": 27.66666667,
   "Longitude": 85.33333333
 },
 {
   "Name": "Pokhara",
   "Latitude": 28.23333333,
   "Longitude": 83.96666667
 },
 {
   "Name": "Ramechhap",
   "Latitude": 27.41666667,
   "Longitude": 86.16666667
 },
 {
   "Name": "Silgarhi Doti",
   "Latitude": 29.25,
   "Longitude": 81
 },
 {
   "Name": "Smimikot",
   "Latitude": 30,
   "Longitude": 81.83333333
 },
 {
   "Name": "Siwalik Range",
   "Latitude": 28,
   "Longitude": 83
 },
 {
   "Name": "Udaipur Garhi",
   "Latitude": 27,
   "Longitude": 86.56666667
 }
]